{
  "customers": [
   {
 "No": "test_nr_1",
 "Name": "Cst 1" ,
 "VAT_Registration_No": "0000600007875",
 "Credit_Limit_LCY": 10000,
 "Salesperson_Code": "SS007",
 "Latitude": "1",
 "Longitude": "2",
 "Gen_Bus_Posting_Group": "DOMESTIC",
 "VAT_Bus_Posting_Group": "VATEU",
 "WHT_Business_Posting_Group": "NOWHT",
 "Tax_Establishment": "Head Office",
 "Customer_Posting_Group": "TRADE-XXX",
 "Tax_Branch_No": "",
 "Blocked": "ALL",
 "Code_Province": "99",
 "Province": "Prowincja",
 "Code_District": "9906",
 "District": "District1" ,
 "Code_Sub_district": "990601",
 "Sub_district": "Sub district" ,
 "Post_Code": "31130",
 "Special_delivery": "Delivery1" ,
 "Shop_Type": "007",
 "Shop_Name": "Shop 007",
 "Address": "Testowa 23" ,
 "Address_2": "addres2",
 "Phone_No": "0700100200",
 "Customer_Billing_Group": "CX0000000",
 "Payment_Terms_Code": "E30DE",
 "Payment_Method_Code": "CASH",
 "Fax_No": "111",
 "E_Mail": "test@test.de",
 "Contact": "Contactde",
 "Customer_Group_No": "GR1",
"Customer_Price_Group": "WHA",
"Balance_LCY": 63009.04,
"Last_Date_Modified": "2020-07-02",
"Shipment_Method_Code": "HATAK",
"City": "Krakow"
},
{
 "No": "test_nr_2",
 "Name": "Cst 2" ,
 "VAT_Registration_No": "0000600007000",
 "Credit_Limit_LCY": 10000,
 "Salesperson_Code": "SS007",
 "Latitude": "1",
 "Longitude": "2",
 "Gen_Bus_Posting_Group": "DOMESTIC",
 "VAT_Bus_Posting_Group": "VATEU",
 "WHT_Business_Posting_Group": "NOWHT",
 "Tax_Establishment": "Head Office",
 "Customer_Posting_Group": "TRADE-XXX",
 "Tax_Branch_No": "",
 "Blocked": "ALL",
 "Code_Province": "99",
 "Province": "Prowincja",
 "Code_District": "9906",
 "District": "District1" ,
 "Code_Sub_district": "990601",
 "Sub_district": "Sub district" ,
 "Post_Code": "31130",
 "Special_delivery": "Delivery1" ,
 "Shop_Type": "007",
 "Shop_Name": "Shop 007",
 "Address": "Testowa 23" ,
 "Address_2": "addres2",
 "Phone_No": "0700100200",
 "Customer_Billing_Group": "CX0000000",
 "Payment_Terms_Code": "E30DE",
 "Payment_Method_Code": "CASH",
 "Fax_No": "111",
 "E_Mail": "test@test.de",
 "Contact": "Contactde",
 "Customer_Group_No": "GR1",
"Customer_Price_Group": "WHA",
"Balance_LCY": 63009.04,
"Last_Date_Modified": "2020-07-02",
"Shipment_Method_Code": "HATAK",
"City": "Krakow"
},
{
 "No": "test_nr_3",
 "Name": "Cst 3" ,
 "VAT_Registration_No": "0000600007875",
 "Credit_Limit_LCY": 10000,
 "Salesperson_Code": "SS007",
 "Latitude": "1",
 "Longitude": "2",
 "Gen_Bus_Posting_Group": "DOMESTIC",
 "VAT_Bus_Posting_Group": "VATEU",
 "WHT_Business_Posting_Group": "NOWHT",
 "Tax_Establishment": "Head Office",
 "Customer_Posting_Group": "TRADE-XXX",
 "Tax_Branch_No": "",
 "Blocked": "ALL",
 "Code_Province": "99",
 "Province": "Prowincja",
 "Code_District": "9906",
 "District": "District1" ,
 "Code_Sub_district": "990601",
 "Sub_district": "Sub district" ,
 "Post_Code": "31130",
 "Special_delivery": "Delivery3" ,
 "Shop_Type": "007",
 "Shop_Name": "Shop 007",
 "Address": "Testowa 23" ,
 "Address_2": "addres2",
 "Phone_No": "0700100200",
 "Customer_Billing_Group": "CX0000000",
 "Payment_Terms_Code": "E30DE",
 "Payment_Method_Code": "CASH",
 "Fax_No": "111",
 "E_Mail": "test@test.de",
 "Contact": "Contactde",
 "Customer_Group_No": "GR1",
"Customer_Price_Group": "WHA",
"Balance_LCY": 63009.04,
"Last_Date_Modified": "2020-07-02",
"Shipment_Method_Code": "HATAK",
"City": "Krakow"
},
{
 "No": "test_nr_4",
 "Name": "Cst 4" ,
 "VAT_Registration_No": "0000600007875",
 "Credit_Limit_LCY": 10000,
 "Salesperson_Code": "SS007",
 "Latitude": "1",
 "Longitude": "4",
 "Gen_Bus_Posting_Group": "DOMESTIC",
 "VAT_Bus_Posting_Group": "VATEU",
 "WHT_Business_Posting_Group": "NOWHT",
 "Tax_Establishment": "Head Office",
 "Customer_Posting_Group": "TRADE-XXX",
 "Tax_Branch_No": "",
 "Blocked": "ALL",
 "Code_Province": "99",
 "Province": "Prowincja",
 "Code_District": "9906",
 "District": "District1" ,
 "Code_Sub_district": "990601",
 "Sub_district": "Sub district" ,
 "Post_Code": "31130",
 "Special_delivery": "Delivery1" ,
 "Shop_Type": "007",
 "Shop_Name": "Shop 007",
 "Address": "Testowa 23" ,
 "Address_2": "addres2",
 "Phone_No": "0700100200",
 "Customer_Billing_Group": "CX0000000",
 "Payment_Terms_Code": "E30DE",
 "Payment_Method_Code": "CASH",
 "Fax_No": "111",
 "E_Mail": "test@test.de",
 "Contact": "Contactde",
 "Customer_Group_No": "GR1",
"Customer_Price_Group": "WHA",
"Balance_LCY": 63009.04,
"Last_Date_Modified": "2020-07-02",
"Shipment_Method_Code": "HATAK",
"City": "Krakow"
},
{
 "No": "test_nr_5",
 "Name": "Cst 5" ,
 "VAT_Registration_No": "0000600007875",
 "Credit_Limit_LCY": 10000,
 "Salesperson_Code": "SS007",
 "Latitude": "6",
 "Longitude": "9",
 "Gen_Bus_Posting_Group": "DOMESTIC",
 "VAT_Bus_Posting_Group": "VATEU",
 "WHT_Business_Posting_Group": "NOWHT",
 "Tax_Establishment": "Head Office",
 "Customer_Posting_Group": "TRADE-XXX",
 "Tax_Branch_No": "",
 "Blocked": "ALL",
 "Code_Province": "99",
 "Province": "Prowincja",
 "Code_District": "9906",
 "District": "District1" ,
 "Code_Sub_district": "990601",
 "Sub_district": "Sub district" ,
 "Post_Code": "31130",
 "Special_delivery": "Delivery1" ,
 "Shop_Type": "007",
 "Shop_Name": "Shop 007",
 "Address": "Testowa 23" ,
 "Address_2": "addres2",
 "Phone_No": "0700100200",
 "Customer_Billing_Group": "CX0000000",
 "Payment_Terms_Code": "E30DE",
 "Payment_Method_Code": "CASH",
 "Fax_No": "111",
 "E_Mail": "test@test.de",
 "Contact": "Contactde",
 "Customer_Group_No": "GR1",
"Customer_Price_Group": "WHA",
"Balance_LCY": 63009.04,
"Last_Date_Modified": "2020-07-02",
"Shipment_Method_Code": "HATAK",
"City": "Krakow" 
}
  ],
  "ship2address": [
   {
 "Customer_No": "CST001",
 "Code": "0001",
 "Name": "DC Washington" ,
 "Address": "313 Testowa " ,
 "Address_2": "aa",
 "Post_Code": "31-400",
 "City": "Krakow",
 "Country_Region_Code": "",
 "ShowMap": "Show on Map",
 "Phone_No": "",
 "Contact": "",
 "Fax_No": "",
 "E_Mail": "",
 "Home_Page": "",
 "Location_Code": "",
 "Shipping_Agent_Code": "",
 "Shipping_Agent_Service_Code": "",
 "Service_Zone_Code": "",
 "Last_Date_Modified": "2020-12-28",
 "Sub_district": "101199",
 "District": "1011",
 "Ship_to_Adress_Ampur_Name": "Tescik" ,
 "Province": "10",
 "Ship_to_Adress_Province_Name": "Test12" ,
 "Shipment_Method_Code": "RBW",
 "Longitude": "",
 "Latitude": ""
 },
 {
 "Customer_No": "CST001",
 "Code": "0001",
 "Name": "DC Washington 2" ,
 "Address": "313 Testowa " ,
 "Address_2": "aa",
 "Post_Code": "31-400",
 "City": "Krakow",
 "Country_Region_Code": "",
 "ShowMap": "Show on Map",
 "Phone_No": "",
 "Contact": "",
 "Fax_No": "",
 "E_Mail": "",
 "Home_Page": "",
 "Location_Code": "",
 "Shipping_Agent_Code": "",
 "Shipping_Agent_Service_Code": "",
 "Service_Zone_Code": "",
 "Last_Date_Modified": "2020-12-28",
 "Sub_district": "101199",
 "District": "1011",
 "Ship_to_Adress_Ampur_Name": "Tescik" ,
 "Province": "10",
 "Ship_to_Adress_Province_Name": "Test12" ,
 "Shipment_Method_Code": "RBW",
 "Longitude": "",
 "Latitude": ""
 },
 {
 "Customer_No": "CST002",
 "Code": "0002",
 "Name": "DC Washington 022" ,
 "Address": "313 Testowa " ,
 "Address_2": "aa",
 "Post_Code": "31-400",
 "City": "Krakow",
 "Country_Region_Code": "",
 "ShowMap": "Show on Map",
 "Phone_No": "",
 "Contact": "",
 "Fax_No": "",
 "E_Mail": "",
 "Home_Page": "",
 "Location_Code": "",
 "Shipping_Agent_Code": "",
 "Shipping_Agent_Service_Code": "",
 "Service_Zone_Code": "",
 "Last_Date_Modified": "2020-12-28",
 "Sub_district": "101199",
 "District": "1011",
 "Ship_to_Adress_Ampur_Name": "Tescik" ,
 "Province": "10",
 "Ship_to_Adress_Province_Name": "Test12" ,
 "Shipment_Method_Code": "RBW",
 "Longitude": "",
 "Latitude": ""
 },
 {
 "Customer_No": "CST002",
 "Code": "0002",
 "Name": "DC Washington X22" ,
 "Address": "313 Testowa " ,
 "Address_2": "aa",
 "Post_Code": "31-400",
 "City": "Krakow",
 "Country_Region_Code": "",
 "ShowMap": "Show on Map",
 "Phone_No": "",
 "Contact": "",
 "Fax_No": "",
 "E_Mail": "",
 "Home_Page": "",
 "Location_Code": "",
 "Shipping_Agent_Code": "",
 "Shipping_Agent_Service_Code": "",
 "Service_Zone_Code": "",
 "Last_Date_Modified": "2020-12-28",
 "Sub_district": "101199",
 "District": "1011",
 "Ship_to_Adress_Ampur_Name": "Tescik" ,
 "Province": "10",
 "Ship_to_Adress_Province_Name": "Test12" ,
 "Shipment_Method_Code": "RBW",
 "Longitude": "",
 "Latitude": ""
 }
  ],
  "profile": {
    "name": "typicode"
  }
}
